{"type": "FeatureCollection", "features": [{"type": "Feature", "properties": {"name": "Avenida La Plata", "linea": "E", "colour": "#6B297E"}, "geometry": {"type": "Point", "coordinates": [-58.426404, -34.626968]}}, {"type": "Feature", "properties": {"name": "Boedo", "linea": "E", "colour": "#6B297E"}, "geometry": {"type": "Point", "coordinates": [-58.4161163, -34.6254799]}}, {"type": "Feature", "properties": {"name": "Constitución", "linea": "C", "colour": "#003EA1"}, "geometry": {"type": "Point", "coordinates": [-58.3811172, -34.6273936]}}, {"type": "Feature", "properties": {"name": "San Juan", "linea": "C", "colour": "#003EA1"}, "geometry": {"type": "Point", "coordinates": [-58.3799317, -34.6222364]}}, {"type": "Feature", "properties": {"name": "Independencia - Santa Mama Antula", "linea": "E", "colour": "#6B297E"}, "geometry": {"type": "Point", "coordinates": [-58.3814646, -34.6181099]}}, {"type": "Feature", "properties": {"name": "Independencia (C)", "linea": "C", "colour": "#003EA1"}, "geometry": {"type": "Point", "coordinates": [-58.3801357, -34.6180915]}}, {"type": "Feature", "properties": {"name": "Diagonal Norte", "linea": "C", "colour": "#003EA1"}, "geometry": {"type": "Point", "coordinates": [-58.3795115, -34.604769]}}, {"type": "Feature", "properties": {"name": "Lavalle", "linea": "C", "colour": "#003EA1"}, "geometry": {"type": "Point", "coordinates": [-58.3781082, -34.6017393]}}, {"type": "Feature", "properties": {"name": "Avenida de Mayo", "linea": "C", "colour": "#003EA1"}, "geometry": {"type": "Point", "coordinates": [-58.3806319, -34.6089745]}}, {"type": "Feature", "properties": {"name": "Catalinas", "linea": "E", "colour": "#6B297E"}, "geometry": {"type": "Point", "coordinates": [-58.3720955, -34.596514]}}, {"type": "Feature", "properties": {"name": "Retiro (E)", "linea": "E", "colour": "#6B297E"}, "geometry": {"type": "Point", "coordinates": [-58.3761678, -34.5921903]}}, {"type": "Feature", "properties": {"name": "General San Martín", "linea": "C", "colour": "#003EA1"}, "geometry": {"type": "Point", "coordinates": [-58.3778987, -34.5950235]}}, {"type": "Feature", "properties": {"name": "Acoyte", "linea": "A", "colour": "#1CA4CB"}, "geometry": {"type": "Point", "coordinates": [-58.4359552, -34.6181052]}}, {"type": "Feature", "properties": {"name": "Carabobo", "linea": "A", "colour": "#1CA4CB"}, "geometry": {"type": "Point", "coordinates": [-58.4561066, -34.6264544]}}, {"type": "Feature", "properties": {"name": "Castro Barros", "linea": "A", "colour": "#1CA4CB"}, "geometry": {"type": "Point", "coordinates": [-58.4215177, -34.6117062]}}, {"type": "Feature", "properties": {"name": "Loria", "linea": "A", "colour": "#1CA4CB"}, "geometry": {"type": "Point", "coordinates": [-58.4155501, -34.6108281]}}, {"type": "Feature", "properties": {"name": "Plaza Miserere", "linea": "A", "colour": "#1CA4CB"}, "geometry": {"type": "Point", "coordinates": [-58.4063571, -34.6097461]}}, {"type": "Feature", "properties": {"name": "Primera Junta", "linea": "A", "colour": "#1CA4CB"}, "geometry": {"type": "Point", "coordinates": [-58.4413922, -34.6205897]}}, {"type": "Feature", "properties": {"name": "Puan", "linea": "A", "colour": "#1CA4CB"}, "geometry": {"type": "Point", "coordinates": [-58.448639, -34.623559]}}, {"type": "Feature", "properties": {"name": "Río de Janeiro", "linea": "A", "colour": "#1CA4CB"}, "geometry": {"type": "Point", "coordinates": [-58.429492, -34.6152413]}}, {"type": "Feature", "properties": {"name": "San José de Flores", "linea": "A", "colour": "#1CA4CB"}, "geometry": {"type": "Point", "coordinates": [-58.4634771, -34.6290748]}}, {"type": "Feature", "properties": {"name": "San Pedrito", "linea": "A", "colour": "#1CA4CB"}, "geometry": {"type": "Point", "coordinates": [-58.4704936, -34.630944]}}, {"type": "Feature", "properties": {"name": "Congreso - Raúl Alfonsín", "linea": "A", "colour": "#1CA4CB"}, "geometry": {"type": "Point", "coordinates": [-58.3925644, -34.6092208]}}, {"type": "Feature", "properties": {"name": "Lima", "linea": "A", "colour": "#1CA4CB"}, "geometry": {"type": "Point", "coordinates": [-58.3826462, -34.6091227]}}, {"type": "Feature", "properties": {"name": "Perú", "linea": "A", "colour": "#1CA4CB"}, "geometry": {"type": "Point", "coordinates": [-58.3745001, -34.6085776]}}, {"type": "Feature", "properties": {"name": "Piedras", "linea": "A", "colour": "#1CA4CB"}, "geometry": {"type": "Point", "coordinates": [-58.3785726, -34.6088397]}}, {"type": "Feature", "properties": {"name": "Plaza de Mayo", "linea": "A", "colour": "#1CA4CB"}, "geometry": {"type": "Point", "coordinates": [-58.3711432, -34.608798]}}, {"type": "Feature", "properties": {"name": "Sáenz Peña", "linea": "A", "colour": "#1CA4CB"}, "geometry": {"type": "Point", "coordinates": [-58.3867508, -34.6094069]}}, {"type": "Feature", "properties": {"name": "Pasco", "linea": "A", "colour": "#1CA4CB"}, "geometry": {"type": "Point", "coordinates": [-58.3985172, -34.6096461]}}, {"type": "Feature", "properties": {"name": "Alberti", "linea": "A", "colour": "#1CA4CB"}, "geometry": {"type": "Point", "coordinates": [-58.4008551, -34.6098814]}}, {"type": "Feature", "properties": {"name": "Bulnes", "linea": "D", "colour": "#217861"}, "geometry": {"type": "Point", "coordinates": [-58.4112129, -34.588251]}}, {"type": "Feature", "properties": {"name": "Callao (D)", "linea": "D", "colour": "#217861"}, "geometry": {"type": "Point", "coordinates": [-58.3926756, -34.5996372]}}, {"type": "Feature", "properties": {"name": "Catedral", "linea": "D", "colour": "#217861"}, "geometry": {"type": "Point", "coordinates": [-58.3742905, -34.60757]}}, {"type": "Feature", "properties": {"name": "Facultad de Medicina", "linea": "D", "colour": "#217861"}, "geometry": {"type": "Point", "coordinates": [-58.3977392, -34.5997479]}}, {"type": "Feature", "properties": {"name": "Ministro Carranza", "linea": "D", "colour": "#217861"}, "geometry": {"type": "Point", "coordinates": [-58.4346817, -34.5752014]}}, {"type": "Feature", "properties": {"name": "Palermo", "linea": "D", "colour": "#217861"}, "geometry": {"type": "Point", "coordinates": [-58.4256173, -34.5784903]}}, {"type": "Feature", "properties": {"name": "Plaza Italia", "linea": "D", "colour": "#217861"}, "geometry": {"type": "Point", "coordinates": [-58.4211107, -34.5814551]}}, {"type": "Feature", "properties": {"name": "Scalabrini Ortiz", "linea": "D", "colour": "#217861"}, "geometry": {"type": "Point", "coordinates": [-58.4158912, -34.5851659]}}, {"type": "Feature", "properties": {"name": "Tribunales - Teatro Colón", "linea": "D", "colour": "#217861"}, "geometry": {"type": "Point", "coordinates": [-58.3848777, -34.6014395]}}, {"type": "Feature", "properties": {"name": "9 de Julio", "linea": "D", "colour": "#217861"}, "geometry": {"type": "Point", "coordinates": [-58.3802711, -34.6044364]}}, {"type": "Feature", "properties": {"name": "Congreso de Tucumán", "linea": "D", "colour": "#217861"}, "geometry": {"type": "Point", "coordinates": [-58.4622186, -34.5558009]}}, {"type": "Feature", "properties": {"name": "José Hernández", "linea": "D", "colour": "#217861"}, "geometry": {"type": "Point", "coordinates": [-58.4520698, -34.566256]}}, {"type": "Feature", "properties": {"name": "Corrientes", "linea": "H", "colour": "#F4CC21"}, "geometry": {"type": "Point", "coordinates": [-58.4053431, -34.6041224]}}, {"type": "Feature", "properties": {"name": "Córdoba", "linea": "H", "colour": "#F4CC21"}, "geometry": {"type": "Point", "coordinates": [-58.4039401, -34.5991974]}}, {"type": "Feature", "properties": {"name": "Once - 30 de Diciembre", "linea": "H", "colour": "#F4CC21"}, "geometry": {"type": "Point", "coordinates": [-58.4060183, -34.6091557]}}, {"type": "Feature", "properties": {"name": "Caseros", "linea": "H", "colour": "#F4CC21"}, "geometry": {"type": "Point", "coordinates": [-58.3990398, -34.6354349]}}, {"type": "Feature", "properties": {"name": "Hospitales - Ringo Bonavena", "linea": "H", "colour": "#F4CC21"}, "geometry": {"type": "Point", "coordinates": [-58.4126594, -34.6416988]}}, {"type": "Feature", "properties": {"name": "Humberto I", "linea": "H", "colour": "#F4CC21"}, "geometry": {"type": "Point", "coordinates": [-58.4023299, -34.6230697]}}, {"type": "Feature", "properties": {"name": "Inclán-Mezquita Al Ahmad", "linea": "H", "colour": "#F4CC21"}, "geometry": {"type": "Point", "coordinates": [-58.4010012, -34.6293073]}}, {"type": "Feature", "properties": {"name": "Parque Patricios", "linea": "H", "colour": "#F4CC21"}, "geometry": {"type": "Point", "coordinates": [-58.4063149, -34.6384945]}}, {"type": "Feature", "properties": {"name": "Venezuela", "linea": "H", "colour": "#F4CC21"}, "geometry": {"type": "Point", "coordinates": [-58.404737, -34.6152097]}}, {"type": "Feature", "properties": {"name": "Santa Fe - Carlos Jáuregui", "linea": "H", "colour": "#F4CC21"}, "geometry": {"type": "Point", "coordinates": [-58.4024287, -34.5947089]}}, {"type": "Feature", "properties": {"name": "Florida", "linea": "B", "colour": "#C20924"}, "geometry": {"type": "Point", "coordinates": [-58.3745624, -34.6033487]}}, {"type": "Feature", "properties": {"name": "Las Heras", "linea": "H", "colour": "#F4CC21"}, "geometry": {"type": "Point", "coordinates": [-58.3972196, -34.5875522]}}, {"type": "Feature", "properties": {"name": "San José", "linea": "E", "colour": "#6B297E"}, "geometry": {"type": "Point", "coordinates": [-58.3852048, -34.6223517]}}, {"type": "Feature", "properties": {"name": "Entre Ríos - Rodolfo Walsh", "linea": "E", "colour": "#6B297E"}, "geometry": {"type": "Point", "coordinates": [-58.3914497, -34.6227394]}}, {"type": "Feature", "properties": {"name": "Dorrego", "linea": "B", "colour": "#C20924"}, "geometry": {"type": "Point", "coordinates": [-58.4474918, -34.5917642]}}, {"type": "Feature", "properties": {"name": "Federico Lacroze", "linea": "B", "colour": "#C20924"}, "geometry": {"type": "Point", "coordinates": [-58.4551513, -34.5871827]}}, {"type": "Feature", "properties": {"name": "Tronador - Villa Ortúzar", "linea": "B", "colour": "#C20924"}, "geometry": {"type": "Point", "coordinates": [-58.4663718, -34.584083]}}, {"type": "Feature", "properties": {"name": "Callao (B)", "linea": "B", "colour": "#C20924"}, "geometry": {"type": "Point", "coordinates": [-58.3927552, -34.604451]}}, {"type": "Feature", "properties": {"name": "Los Incas - Parque Chas", "linea": "B", "colour": "#C20924"}, "geometry": {"type": "Point", "coordinates": [-58.4743442, -34.5812088]}}, {"type": "Feature", "properties": {"name": "Uruguay", "linea": "B", "colour": "#C20924"}, "geometry": {"type": "Point", "coordinates": [-58.3870845, -34.604043]}}, {"type": "Feature", "properties": {"name": "Malabia - Osvaldo Pugliese", "linea": "B", "colour": "#C20924"}, "geometry": {"type": "Point", "coordinates": [-58.4396927, -34.5990344]}}, {"type": "Feature", "properties": {"name": "Echeverría", "linea": "B", "colour": "#C20924"}, "geometry": {"type": "Point", "coordinates": [-58.4807356, -34.5779686]}}, {"type": "Feature", "properties": {"name": "Plaza Constitución", "linea": "C", "colour": "#003EA1"}, "geometry": {"type": "Point", "coordinates": [-58.3805698, -34.6282576]}}, {"type": "Feature", "properties": {"name": "Bolívar", "linea": "E", "colour": "#6B297E"}, "geometry": {"type": "Point", "coordinates": [-58.3741113, -34.6097375]}}, {"type": "Feature", "properties": {"name": "Belgrano", "linea": "E", "colour": "#6B297E"}, "geometry": {"type": "Point", "coordinates": [-58.3776468, -34.612958]}}, {"type": "Feature", "properties": {"name": "Carlos Pellegrini", "linea": "B", "colour": "#C20924"}, "geometry": {"type": "Point", "coordinates": [-58.3812708, -34.6036824]}}, {"type": "Feature", "properties": {"name": "Leandro N. Alem", "linea": "B", "colour": "#C20924"}, "geometry": {"type": "Point", "coordinates": [-58.3697268, -34.6029769]}}, {"type": "Feature", "properties": {"name": "Juan Manuel de Rosas", "linea": "B", "colour": "#C20924"}, "geometry": {"type": "Point", "coordinates": [-58.4868061, -34.5739773]}}, {"type": "Feature", "properties": {"name": "Ángel Gallardo", "linea": "B", "colour": "#C20924"}, "geometry": {"type": "Point", "coordinates": [-58.4311317, -34.6021483]}}, {"type": "Feature", "properties": {"name": "Medrano - Almagro", "linea": "B", "colour": "#C20924"}, "geometry": {"type": "Point", "coordinates": [-58.4208126, -34.6032012]}}, {"type": "Feature", "properties": {"name": "Carlos Gardel", "linea": "B", "colour": "#C20924"}, "geometry": {"type": "Point", "coordinates": [-58.4113533, -34.6040822]}}, {"type": "Feature", "properties": {"name": "Pueyrredón (B)", "linea": "H", "colour": "#F4CC21"}, "geometry": {"type": "Point", "coordinates": [-58.4054021, -34.6045673]}}, {"type": "Feature", "properties": {"name": "Pasteur - AMIA", "linea": "B", "colour": "#C20924"}, "geometry": {"type": "Point", "coordinates": [-58.3994148, -34.6046438]}}, {"type": "Feature", "properties": {"name": "Retiro (C)", "linea": "C", "colour": "#003EA1"}, "geometry": {"type": "Point", "coordinates": [-58.3741803, -34.5913025]}}, {"type": "Feature", "properties": {"name": "Agüero", "linea": "D", "colour": "#217861"}, "geometry": {"type": "Point", "coordinates": [-58.4070715, -34.5917097]}}, {"type": "Feature", "properties": {"name": "Juramento", "linea": "D", "colour": "#217861"}, "geometry": {"type": "Point", "coordinates": [-58.4563786, -34.5624355]}}, {"type": "Feature", "properties": {"name": "Olleros", "linea": "D", "colour": "#217861"}, "geometry": {"type": "Point", "coordinates": [-58.4443609, -34.5702528]}}, {"type": "Feature", "properties": {"name": "Jujuy", "linea": "E", "colour": "#6B297E"}, "geometry": {"type": "Point", "coordinates": [-58.4027603, -34.6238418]}}, {"type": "Feature", "properties": {"name": "Pichincha", "linea": "E", "colour": "#6B297E"}, "geometry": {"type": "Point", "coordinates": [-58.3975718, -34.6232137]}}, {"type": "Feature", "properties": {"name": "General Urquiza", "linea": "E", "colour": "#6B297E"}, "geometry": {"type": "Point", "coordinates": [-58.4097487, -34.6246886]}}, {"type": "Feature", "properties": {"name": "Plaza de los Virreyes - Eva Perón", "linea": "E", "colour": "#6B297E"}, "geometry": {"type": "Point", "coordinates": [-58.461676, -34.6429239]}}, {"type": "Feature", "properties": {"name": "Varela", "linea": "E", "colour": "#6B297E"}, "geometry": {"type": "Point", "coordinates": [-58.4580134, -34.6398165]}}, {"type": "Feature", "properties": {"name": "Medalla Milagrosa", "linea": "E", "colour": "#6B297E"}, "geometry": {"type": "Point", "coordinates": [-58.4501913, -34.6363065]}}, {"type": "Feature", "properties": {"name": "Emilio Mitre", "linea": "E", "colour": "#6B297E"}, "geometry": {"type": "Point", "coordinates": [-58.4423592, -34.6314574]}}, {"type": "Feature", "properties": {"name": "José María Moreno", "linea": "E", "colour": "#6B297E"}, "geometry": {"type": "Point", "coordinates": [-58.4338861, -34.6280256]}}, {"type": "Feature", "properties": {"name": "Facultad de Derecho - Julieta Lanteri", "linea": "H", "colour": "#F4CC21"}, "geometry": {"type": "Point", "coordinates": [-58.3910479, -34.5830687]}}, {"type": "Feature", "properties": {"name": "Correo Central", "linea": "E", "colour": "#6B297E"}, "geometry": {"type": "Point", "coordinates": [-58.3702237, -34.6037]}}, {"type": "Feature", "properties": {"name": "Pueyrredón (D)", "linea": "D", "colour": "#217861"}, "geometry": {"type": "Point", "coordinates": [-58.4031408, -34.5949245]}}]}